var aeroport2 = { 
"features": [ 
 { "type": "Feature", "properties": { "Name":"Kuweires","ID":"31","Coalition":"Neutral","Lat":"36.18937442608","Long":"37.570439309206","Nb parking":"39"},"geometry": { "type": "Point", "coordinates": [ 37.570439309206,36.18937442608 ] } }, 
 { "type": "Feature", "properties": { "Name":"Marj Ruhayyil","ID":"23","Coalition":"Neutral","Lat":"33.279509844412","Long":"36.446981161337","Nb parking":"57"},"geometry": { "type": "Point", "coordinates": [ 36.446981161337,33.279509844412 ] } }, 
 { "type": "Feature", "properties": { "Name":"Kiryat Shmona","ID":"20","Coalition":"Neutral","Lat":"33.212372031645","Long":"35.592419825247","Nb parking":"7"},"geometry": { "type": "Point", "coordinates": [ 35.592419825247,33.212372031645 ] } }, 
 { "type": "Feature", "properties": { "Name":"Marj as Sultan North","ID":"22","Coalition":"Neutral","Lat":"33.500422745428","Long":"36.466321617972","Nb parking":"16"},"geometry": { "type": "Point", "coordinates": [ 36.466321617972,33.500422745428 ] } }, 
 { "type": "Feature", "properties": { "Name":"Eyn Shemer","ID":"10","Coalition":"Neutral","Lat":"32.441791483481","Long":"35.001899624572","Nb parking":"7"},"geometry": { "type": "Point", "coordinates": [ 35.001899624572,32.441791483481 ] } }, 
 { "type": "Feature", "properties": { "Name":"Incirlik","ID":"16","Coalition":"Neutral","Lat":"36.994254281542","Long":"35.412713065757","Nb parking":"128"},"geometry": { "type": "Point", "coordinates": [ 35.412713065757,36.994254281542 ] } }, 
 { "type": "Feature", "properties": { "Name":"Damascus","ID":"7","Coalition":"Neutral","Lat":"33.415340013895","Long":"36.504254828586","Nb parking":"75"},"geometry": { "type": "Point", "coordinates": [ 36.504254828586,33.415340013895 ] } }, 
 { "type": "Feature", "properties": { "Name":"Tha'lah","ID":"5","Coalition":"Neutral","Lat":"32.698127092337","Long":"36.402739209399","Nb parking":"18"},"geometry": { "type": "Point", "coordinates": [ 36.402739209399,32.698127092337 ] } }, 
 { "type": "Feature", "properties": { "Name":"Rosh Pina","ID":"34","Coalition":"Neutral","Lat":"32.97928167649","Long":"35.572651208285","Nb parking":"11"},"geometry": { "type": "Point", "coordinates": [ 35.572651208285,32.97928167649 ] } }, 
 { "type": "Feature", "properties": { "Name":"Aleppo","ID":"27","Coalition":"Neutral","Lat":"36.182211524331","Long":"37.210383232385","Nb parking":"24"},"geometry": { "type": "Point", "coordinates": [ 37.210383232385,36.182211524331 ] } }, 
 { "type": "Feature", "properties": { "Name":"Al Qusayr","ID":"3","Coalition":"Neutral","Lat":"34.566877297302","Long":"36.5854147754","Nb parking":"36"},"geometry": { "type": "Point", "coordinates": [ 36.5854147754,34.566877297302 ] } }, 
 { "type": "Feature", "properties": { "Name":"Wujah Al Hajar","ID":"40","Coalition":"Neutral","Lat":"34.286960508475","Long":"35.683990308563","Nb parking":"8"},"geometry": { "type": "Point", "coordinates": [ 35.683990308563,34.286960508475 ] } }, 
 { "type": "Feature", "properties": { "Name":"Al-Dumayr","ID":"9","Coalition":"Neutral","Lat":"33.604657449318","Long":"36.735832718421","Nb parking":"59"},"geometry": { "type": "Point", "coordinates": [ 36.735832718421,33.604657449318 ] } }, 
 { "type": "Feature", "properties": { "Name":"Hatay","ID":"15","Coalition":"Neutral","Lat":"36.371269972814","Long":"36.298090184913","Nb parking":"12"},"geometry": { "type": "Point", "coordinates": [ 36.298090184913,36.371269972814 ] } }, 
 { "type": "Feature", "properties": { "Name":"Abu al-Duhur","ID":"1","Coalition":"Neutral","Lat":"35.731462428174","Long":"37.118801734534","Nb parking":"38"},"geometry": { "type": "Point", "coordinates": [ 37.118801734534,35.731462428174 ] } }, 
 { "type": "Feature", "properties": { "Name":"Bassel Al-Assad","ID":"21","Coalition":"Neutral","Lat":"35.411589930353","Long":"35.95003283514","Nb parking":"55"},"geometry": { "type": "Point", "coordinates": [ 35.95003283514,35.411589930353 ] } }, 
 { "type": "Feature", "properties": { "Name":"Paphos","ID":"46","Coalition":"Neutral","Lat":"34.72239325815","Long":"32.471801697209","Nb parking":"45"},"geometry": { "type": "Point", "coordinates": [ 32.471801697209,34.72239325815 ] } }, 
 { "type": "Feature", "properties": { "Name":"Beirut-Rafic Hariri","ID":"6","Coalition":"Neutral","Lat":"33.836465479357","Long":"35.487416760577","Nb parking":"47"},"geometry": { "type": "Point", "coordinates": [ 35.487416760577,33.836465479357 ] } }, 
 { "type": "Feature", "properties": { "Name":"Tabqa","ID":"37","Coalition":"Neutral","Lat":"35.755613770805","Long":"38.551250775516","Nb parking":"31"},"geometry": { "type": "Point", "coordinates": [ 38.551250775516,35.755613770805 ] } }, 
 { "type": "Feature", "properties": { "Name":"Haifa","ID":"13","Coalition":"Neutral","Lat":"32.80645293353","Long":"35.04502076035","Nb parking":"18"},"geometry": { "type": "Point", "coordinates": [ 35.04502076035,32.80645293353 ] } }, 
 { "type": "Feature", "properties": { "Name":"Khalkhalah","ID":"18","Coalition":"Neutral","Lat":"33.06361028266","Long":"36.559784748722","Nb parking":"59"},"geometry": { "type": "Point", "coordinates": [ 36.559784748722,33.06361028266 ] } }, 
 { "type": "Feature", "properties": { "Name":"Megiddo","ID":"24","Coalition":"Neutral","Lat":"32.597578671655","Long":"35.220203497046","Nb parking":"11"},"geometry": { "type": "Point", "coordinates": [ 35.220203497046,32.597578671655 ] } }, 
 { "type": "Feature", "properties": { "Name":"Marj as Sultan South","ID":"8","Coalition":"Neutral","Lat":"33.487483451402","Long":"36.475050826595","Nb parking":"22"},"geometry": { "type": "Point", "coordinates": [ 36.475050826595,33.487483451402 ] } }, 
 { "type": "Feature", "properties": { "Name":"Rayak","ID":"32","Coalition":"Neutral","Lat":"33.84290182523","Long":"35.976931824797","Nb parking":"14"},"geometry": { "type": "Point", "coordinates": [ 35.976931824797,33.84290182523 ] } }, 
 { "type": "Feature", "properties": { "Name":"Pinarbashi","ID":"51","Coalition":"Neutral","Lat":"35.278334798852","Long":"33.26701429987","Nb parking":"7"},"geometry": { "type": "Point", "coordinates": [ 33.26701429987,35.278334798852 ] } }, 
 { "type": "Feature", "properties": { "Name":"Mezzeh","ID":"25","Coalition":"Neutral","Lat":"33.482713511778","Long":"36.235064059083","Nb parking":"42"},"geometry": { "type": "Point", "coordinates": [ 36.235064059083,33.482713511778 ] } }, 
 { "type": "Feature", "properties": { "Name":"Gecitkale","ID":"50","Coalition":"Neutral","Lat":"35.236403909864","Long":"33.707277702803","Nb parking":"5"},"geometry": { "type": "Point", "coordinates": [ 33.707277702803,35.236403909864 ] } }, 
 { "type": "Feature", "properties": { "Name":"Nicosia","ID":"43","Coalition":"Neutral","Lat":"35.150949550582","Long":"33.275629556599","Nb parking":"0"},"geometry": { "type": "Point", "coordinates": [ 33.275629556599,35.150949550582 ] } }, 
 { "type": "Feature", "properties": { "Name":"Naqoura","ID":"52","Coalition":"Neutral","Lat":"33.10790532693","Long":"35.127285739707","Nb parking":"9"},"geometry": { "type": "Point", "coordinates": [ 35.127285739707,33.10790532693 ] } }, 
 { "type": "Feature", "properties": { "Name":"Gaziantep","ID":"11","Coalition":"Neutral","Lat":"36.951397233614","Long":"37.464512889798","Nb parking":"14"},"geometry": { "type": "Point", "coordinates": [ 37.464512889798,36.951397233614 ] } }, 
 { "type": "Feature", "properties": { "Name":"Palmyra","ID":"28","Coalition":"Neutral","Lat":"34.558235536659","Long":"38.331123062337","Nb parking":"24"},"geometry": { "type": "Point", "coordinates": [ 38.331123062337,34.558235536659 ] } }, 
 { "type": "Feature", "properties": { "Name":"Sayqal","ID":"35","Coalition":"Neutral","Lat":"33.680052164369","Long":"37.204068911005","Nb parking":"61"},"geometry": { "type": "Point", "coordinates": [ 37.204068911005,33.680052164369 ] } }, 
 { "type": "Feature", "properties": { "Name":"Shayrat","ID":"36","Coalition":"Neutral","Lat":"34.494640308217","Long":"36.894468654443","Nb parking":"59"},"geometry": { "type": "Point", "coordinates": [ 36.894468654443,34.494640308217 ] } }, 
 { "type": "Feature", "properties": { "Name":"Kingsfield","ID":"45","Coalition":"Neutral","Lat":"35.016621196807","Long":"33.721655835024","Nb parking":"4"},"geometry": { "type": "Point", "coordinates": [ 33.721655835024,35.016621196807 ] } }, 
 { "type": "Feature", "properties": { "Name":"Taftanaz","ID":"38","Coalition":"Neutral","Lat":"35.973223381816","Long":"36.785894108748","Nb parking":"50"},"geometry": { "type": "Point", "coordinates": [ 36.785894108748,35.973223381816 ] } }, 
 { "type": "Feature", "properties": { "Name":"Qabr as Sitt","ID":"29","Coalition":"Neutral","Lat":"33.458606617206","Long":"36.356880859456","Nb parking":"11"},"geometry": { "type": "Point", "coordinates": [ 36.356880859456,33.458606617206 ] } }, 
 { "type": "Feature", "properties": { "Name":"King Hussein Air College","ID":"19","Coalition":"Neutral","Lat":"32.348793954817","Long":"36.270213489366","Nb parking":"54"},"geometry": { "type": "Point", "coordinates": [ 36.270213489366,32.348793954817 ] } }, 
 { "type": "Feature", "properties": { "Name":"Ramat David","ID":"30","Coalition":"Blue","Lat":"32.666055265719","Long":"35.165455922777","Nb parking":"48"},"geometry": { "type": "Point", "coordinates": [ 35.165455922777,32.666055265719 ] } }, 
 { "type": "Feature", "properties": { "Name":"Jirah","ID":"17","Coalition":"Neutral","Lat":"36.094487121629","Long":"37.951086106528","Nb parking":"30"},"geometry": { "type": "Point", "coordinates": [ 37.951086106528,36.094487121629 ] } }, 
 { "type": "Feature", "properties": { "Name":"Rene Mouawad","ID":"33","Coalition":"Neutral","Lat":"34.583953310218","Long":"35.9986872567","Nb parking":"15"},"geometry": { "type": "Point", "coordinates": [ 35.9986872567,34.583953310218 ] } }, 
 { "type": "Feature", "properties": { "Name":"H4","ID":"12","Coalition":"Neutral","Lat":"32.536851104207","Long":"38.206376228872","Nb parking":"14"},"geometry": { "type": "Point", "coordinates": [ 38.206376228872,32.536851104207 ] } }, 
 { "type": "Feature", "properties": { "Name":"Minakh","ID":"26","Coalition":"Neutral","Lat":"36.522812218953","Long":"37.033622455645","Nb parking":"24"},"geometry": { "type": "Point", "coordinates": [ 37.033622455645,36.522812218953 ] } }, 
 { "type": "Feature", "properties": { "Name":"Adana Sakirpasa","ID":"2","Coalition":"Neutral","Lat":"36.988281127829","Long":"35.291372307265","Nb parking":"41"},"geometry": { "type": "Point", "coordinates": [ 35.291372307265,36.988281127829 ] } }, 
 { "type": "Feature", "properties": { "Name":"Tiyas","ID":"39","Coalition":"Neutral","Lat":"34.522531432479","Long":"37.645765105063","Nb parking":"84"},"geometry": { "type": "Point", "coordinates": [ 37.645765105063,34.522531432479 ] } }, 
 { "type": "Feature", "properties": { "Name":"Hama","ID":"14","Coalition":"Neutral","Lat":"35.116099484431","Long":"36.72547347191","Nb parking":"48"},"geometry": { "type": "Point", "coordinates": [ 36.72547347191,35.116099484431 ] } }, 
 { "type": "Feature", "properties": { "Name":"Ercan","ID":"49","Coalition":"Neutral","Lat":"35.159249791336","Long":"33.49011058133","Nb parking":"9"},"geometry": { "type": "Point", "coordinates": [ 33.49011058133,35.159249791336 ] } }, 
 { "type": "Feature", "properties": { "Name":"Gazipasa","ID":"41","Coalition":"Neutral","Lat":"36.297823085147","Long":"32.286068490305","Nb parking":"8"},"geometry": { "type": "Point", "coordinates": [ 32.286068490305,36.297823085147 ] } }, 
 { "type": "Feature", "properties": { "Name":"Larnaca","ID":"47","Coalition":"Neutral","Lat":"34.865619667975","Long":"33.613584325006","Nb parking":"47"},"geometry": { "type": "Point", "coordinates": [ 33.613584325006,34.865619667975 ] } }, 
 { "type": "Feature", "properties": { "Name":"Akrotiri","ID":"44","Coalition":"Neutral","Lat":"34.594065664734","Long":"32.974818319372","Nb parking":"47"},"geometry": { "type": "Point", "coordinates": [ 32.974818319372,34.594065664734 ] } }, 
 { "type": "Feature", "properties": { "Name":"An Nasiriyah","ID":"4","Coalition":"Neutral","Lat":"33.92656597361","Long":"36.875344527767","Nb parking":"22"},"geometry": { "type": "Point", "coordinates": [ 36.875344527767,33.92656597361 ] } }, 
 { "type": "Feature", "properties": { "Name":"Lakatamia","ID":"48","Coalition":"Neutral","Lat":"35.106311731529","Long":"33.321670653775","Nb parking":"10"},"geometry": { "type": "Point", "coordinates": [ 33.321670653775,35.106311731529 ] } }, 
 ] 
 };